{"businesses": [{"id": "aafj0sUR__011Dm5EZ_TFg", "alias": "bibble-and-sip-new-york-5", "name": "Bibble & Sip", "image_url": "https://s3-media1.fl.yelpcdn.com/bphoto/ADdXC3GLXy8ypYdpP0W_KQ/o.jpg", "is_closed": false, "url": "https://www.yelp.com/biz/bibble-and-sip-new-york-5?adjust_creative=65V52D5Pl9DW8TdUw062EQ&utm_campaign=yelp_api_v3&utm_medium=api_v3_business_search&utm_source=65V52D5Pl9DW8TdUw062EQ", "review_count": 11, "categories": [{"alias": "bakeries", "title": "Bakeries"}, {"alias": "coffee", "title": "Coffee & Tea"}], "rating": 4.5, "coordinates": {"latitude": 40.71796, "longitude": -73.99761}, "transactions": [], "price": "$", "location": {"address1": "174 Hester St", "address2": null, "address3": "", "city": "New York", "zip_code": "10013", "country": "US", "state": "NY", "display_address": ["174 Hester St", "New York, NY 10013"]}, "phone": "", "display_phone": "", "distance": 1417.1214277803097}, {"id": "SMImQM_JfZkIZwflTgOAoQ", "alias": "yi-ji-shi-mo-noodle-corp-new-york-5", "name": "Yi Ji Shi Mo Noodle Corp", "image_url": "https://s3-media2.fl.yelpcdn.com/bphoto/LF2BGoPAskgQ4WmAW8V_IA/o.jpg", "is_closed": false, "url": "https://www.yelp.com/biz/yi-ji-shi-mo-noodle-corp-new-york-5?adjust_creative=65V52D5Pl9DW8TdUw062EQ&utm_campaign=yelp_api_v3&utm_medium=api_v3_business_search&utm_source=65V52D5Pl9DW8TdUw062EQ", "review_count": 12, "categories": [{"alias": "chinese", "title": "Chinese"}], "rating": 4.5, "coordinates": {"latitude": 40.71824, "longitude": -73.99583}, "transactions": [], "location": {"address1": "88 Elizabeth St", "address2": "", "address3": null, "city": "New York", "zip_code": "10013", "country": "US", "state": "NY", "display_address": ["88 Elizabeth St", "New York, NY 10013"]}, "phone": "+16462336311", "display_phone": "(646) 233-6311", "distance": 1418.3148115835338}, {"id": "cTE0e96GYzet799EJeStoQ", "alias": "chama-mama-new-york", "name": "Chama Mama", "image_url": "https://s3-media3.fl.yelpcdn.com/bphoto/qRZaBnsI-gfyaSTEIEGzgw/o.jpg", "is_closed": false, "url": "https://www.yelp.com/biz/chama-mama-new-york?adjust_creative=65V52D5Pl9DW8TdUw062EQ&utm_campaign=yelp_api_v3&utm_medium=api_v3_business_search&utm_source=65V52D5Pl9DW8TdUw062EQ", "review_count": 28, "categories": [{"alias": "georgian", "title": "Georgian"}], "rating": 5.0, "coordinates": {"latitude": 40.7384, "longitude": -73.99892}, "transactions": [], "location": {"address1": "149 W 14th St", "address2": null, "address3": "", "city": "New York", "zip_code": "10011", "country": "US", "state": "NY", "display_address": ["149 W 14th St", "New York, NY 10011"]}, "phone": "+16464389007", "display_phone": "(646) 438-9007", "distance": 3690.5460277554907}, {"id": "q2bIyvU8CQwiB6xe_iVs0g", "alias": "fan-fried-rice-bar-brooklyn-2", "name": "Fan Fried Rice Bar", "image_url": "https://s3-media3.fl.yelpcdn.com/bphoto/HGcN7WIU9tIVmsCIbnoNmA/o.jpg", "is_closed": false, "url": "https://www.yelp.com/biz/fan-fried-rice-bar-brooklyn-2?adjust_creative=65V52D5Pl9DW8TdUw062EQ&utm_campaign=yelp_api_v3&utm_medium=api_v3_business_search&utm_source=65V52D5Pl9DW8TdUw062EQ", "review_count": 50, "categories": [{"alias": "taiwanese", "title": "Taiwanese"}], "rating": 4.5, "coordinates": {"latitude": 40.69099, "longitude": -73.95587}, "transactions": ["pickup", "delivery"], "price": "$", "location": {"address1": "525 Dekalb Ave", "address2": null, "address3": "", "city": "Brooklyn", "zip_code": "11205", "country": "US", "state": "NY", "display_address": ["525 Dekalb Ave", "Brooklyn, NY 11205"]}, "phone": "+19292902197", "display_phone": "(929) 290-2197", "distance": 3612.2739701769797}, {"id": "wdGMVLUzocmnl2tST0lheg", "alias": "yunshang-rice-noodle-house-new-york-4", "name": "YunShang Rice Noodle House", "image_url": "https://s3-media4.fl.yelpcdn.com/bphoto/8iXMXnXZEn3iYD1XmhYUSg/o.jpg", "is_closed": false, "url": "https://www.yelp.com/biz/yunshang-rice-noodle-house-new-york-4?adjust_creative=65V52D5Pl9DW8TdUw062EQ&utm_campaign=yelp_api_v3&utm_medium=api_v3_business_search&utm_source=65V52D5Pl9DW8TdUw062EQ", "review_count": 81, "categories": [{"alias": "chinese", "title": "Chinese"}, {"alias": "noodles", "title": "Noodles"}, {"alias": "asianfusion", "title": "Asian Fusion"}], "rating": 4.0, "coordinates": {"latitude": 40.71525, "longitude": -73.99765}, "transactions": [], "price": "$$", "location": {"address1": "53 Bayard St", "address2": null, "address3": "", "city": "New York", "zip_code": "10013", "country": "US", "state": "NY", "display_address": ["53 Bayard St", "New York, NY 10013"]}, "phone": "+16469985223", "display_phone": "(646) 998-5223", "distance": 1120.0970763836874}, {"id": "FZYmp5c1VtWNfe635G_wsQ", "alias": "taste-of-heaven-brooklyn", "name": "Taste of Heaven", "image_url": "https://s3-media3.fl.yelpcdn.com/bphoto/SNiWVU6gk8UyVFS44LtdKg/o.jpg", "is_closed": false, "url": "https://www.yelp.com/biz/taste-of-heaven-brooklyn?adjust_creative=65V52D5Pl9DW8TdUw062EQ&utm_campaign=yelp_api_v3&utm_medium=api_v3_business_search&utm_source=65V52D5Pl9DW8TdUw062EQ", "review_count": 100, "categories": [{"alias": "soulfood", "title": "Soul Food"}], "rating": 5.0, "coordinates": {"latitude": 40.717115, "longitude": -73.940613}, "transactions": ["pickup"], "price": "$$", "location": {"address1": "251 Jackson St", "address2": "", "address3": "", "city": "Brooklyn", "zip_code": "11211", "country": "US", "state": "NY", "display_address": ["251 Jackson St", "Brooklyn, NY 11211"]}, "phone": "+17185763146", "display_phone": "(718) 576-3146", "distance": 4706.918985703231}, {"id": "34LM8_lP8iwizHBu6YgaQQ", "alias": "el-jeffe-brooklyn", "name": "El Jeffe", "image_url": "https://s3-media4.fl.yelpcdn.com/bphoto/hJlnefUcbPP_fKj7atN8kQ/o.jpg", "is_closed": false, "url": "https://www.yelp.com/biz/el-jeffe-brooklyn?adjust_creative=65V52D5Pl9DW8TdUw062EQ&utm_campaign=yelp_api_v3&utm_medium=api_v3_business_search&utm_source=65V52D5Pl9DW8TdUw062EQ", "review_count": 182, "categories": [{"alias": "newmexican", "title": "New Mexican Cuisine"}], "rating": 4.5, "coordinates": {"latitude": 40.6801601, "longitude": -73.9419752}, "transactions": ["pickup", "delivery"], "price": "$$", "location": {"address1": "1483 Fulton St", "address2": "", "address3": null, "city": "Brooklyn", "zip_code": "11216", "country": "US", "state": "NY", "display_address": ["1483 Fulton St", "Brooklyn, NY 11216"]}, "phone": "+13473658919", "display_phone": "(347) 365-8919", "distance": 5230.765415873039}, {"id": "HFOiW4RvijuoblE4DD3JwA", "alias": "dekalb-market-hall-brooklyn-2", "name": "Dekalb Market Hall", "image_url": "https://s3-media2.fl.yelpcdn.com/bphoto/8uY338Gbzs90jcFnPryZ-w/o.jpg", "is_closed": false, "url": "https://www.yelp.com/biz/dekalb-market-hall-brooklyn-2?adjust_creative=65V52D5Pl9DW8TdUw062EQ&utm_campaign=yelp_api_v3&utm_medium=api_v3_business_search&utm_source=65V52D5Pl9DW8TdUw062EQ", "review_count": 577, "categories": [{"alias": "food_court", "title": "Food Court"}], "rating": 4.0, "coordinates": {"latitude": 40.690584, "longitude": -73.982326}, "transactions": [], "price": "$$", "location": {"address1": "445 Albee Square W", "address2": "Basement Level", "address3": null, "city": "Brooklyn", "zip_code": "11201", "country": "US", "state": "NY", "display_address": ["445 Albee Square W", "Basement Level", "Brooklyn, NY 11201"]}, "phone": "+19293596555", "display_phone": "(929) 359-6555", "distance": 1874.716920029624}, {"id": "XipQLDbyTl5tsLlyzAWzug", "alias": "jajaja-new-york", "name": "Jajaja", "image_url": "https://s3-media2.fl.yelpcdn.com/bphoto/QaIhCEp1FpU3a2teWQh6mA/o.jpg", "is_closed": false, "url": "https://www.yelp.com/biz/jajaja-new-york?adjust_creative=65V52D5Pl9DW8TdUw062EQ&utm_campaign=yelp_api_v3&utm_medium=api_v3_business_search&utm_source=65V52D5Pl9DW8TdUw062EQ", "review_count": 641, "categories": [{"alias": "mexican", "title": "Mexican"}, {"alias": "vegan", "title": "Vegan"}, {"alias": "bars", "title": "Bars"}], "rating": 4.5, "coordinates": {"latitude": 40.7141530317142, "longitude": -73.9904247969389}, "transactions": ["restaurant_reservation"], "price": "$$", "location": {"address1": "162 E Broadway", "address2": "", "address3": null, "city": "New York", "zip_code": "10002", "country": "US", "state": "NY", "display_address": ["162 E Broadway", "New York, NY 10002"]}, "phone": "+16468835453", "display_phone": "(646) 883-5453", "distance": 1021.7274074140097}, {"id": "oe8GEFE4QLFAKt87y7zcgA", "alias": "very-fresh-noodles-new-york", "name": "Very Fresh Noodles", "image_url": "https://s3-media4.fl.yelpcdn.com/bphoto/XR-VxOQvICyCqCl3sqwYNA/o.jpg", "is_closed": false, "url": "https://www.yelp.com/biz/very-fresh-noodles-new-york?adjust_creative=65V52D5Pl9DW8TdUw062EQ&utm_campaign=yelp_api_v3&utm_medium=api_v3_business_search&utm_source=65V52D5Pl9DW8TdUw062EQ", "review_count": 753, "categories": [{"alias": "taiwanese", "title": "Taiwanese"}, {"alias": "chinese", "title": "Chinese"}, {"alias": "noodles", "title": "Noodles"}], "rating": 4.5, "coordinates": {"latitude": 40.7423387008486, "longitude": -74.00625}, "transactions": [], "price": "$$", "location": {"address1": "425 W 15th St", "address2": null, "address3": "", "city": "New York", "zip_code": "10011", "country": "US", "state": "NY", "display_address": ["425 W 15th St", "New York, NY 10011"]}, "phone": "", "display_phone": "", "distance": 4224.33101069106}, {"id": "gHdejB1Mx2P5UjAgZ6BT2w", "alias": "cheeky-sandwiches-new-york", "name": "Cheeky Sandwiches", "image_url": "https://s3-media3.fl.yelpcdn.com/bphoto/XGGQOLhQIL-Y8Y-CdHeOPg/o.jpg", "is_closed": false, "url": "https://www.yelp.com/biz/cheeky-sandwiches-new-york?adjust_creative=65V52D5Pl9DW8TdUw062EQ&utm_campaign=yelp_api_v3&utm_medium=api_v3_business_search&utm_source=65V52D5Pl9DW8TdUw062EQ", "review_count": 1095, "categories": [{"alias": "sandwiches", "title": "Sandwiches"}, {"alias": "desserts", "title": "Desserts"}], "rating": 4.5, "coordinates": {"latitude": 40.7158, "longitude": -73.99169}, "transactions": ["pickup", "delivery"], "price": "$", "location": {"address1": "35 Orchard St", "address2": "", "address3": "", "city": "New York", "zip_code": "10002", "country": "US", "state": "NY", "display_address": ["35 Orchard St", "New York, NY 10002"]}, "phone": "+16465048132", "display_phone": "(646) 504-8132", "distance": 1165.1002553885921}, {"id": "SULHf6nGQ8sK0UpG1XU30w", "alias": "los-tacos-no-1-new-york-3", "name": "Los Tacos No.1", "image_url": "https://s3-media4.fl.yelpcdn.com/bphoto/5wEe4FCwda16knmBHSsX0Q/o.jpg", "is_closed": false, "url": "https://www.yelp.com/biz/los-tacos-no-1-new-york-3?adjust_creative=65V52D5Pl9DW8TdUw062EQ&utm_campaign=yelp_api_v3&utm_medium=api_v3_business_search&utm_source=65V52D5Pl9DW8TdUw062EQ", "review_count": 1099, "categories": [{"alias": "tacos", "title": "Tacos"}], "rating": 4.5, "coordinates": {"latitude": 40.7575067, "longitude": -73.9877717}, "transactions": [], "price": "$", "location": {"address1": "229 W 43rd St", "address2": "", "address3": null, "city": "New York", "zip_code": "10036", "country": "US", "state": "NY", "display_address": ["229 W 43rd St", "New York, NY 10036"]}, "phone": "+12125744696", "display_phone": "(212) 574-4696", "distance": 5815.027424033859}, {"id": "X8ZS-dgiMIJvhwf9SaDnjw", "alias": "wah-fung-no-1-fast-food-new-york-3", "name": "Wah Fung No 1 Fast Food", "image_url": "https://s3-media3.fl.yelpcdn.com/bphoto/yBKRQXNhlxK8ilFd7UHg9g/o.jpg", "is_closed": false, "url": "https://www.yelp.com/biz/wah-fung-no-1-fast-food-new-york-3?adjust_creative=65V52D5Pl9DW8TdUw062EQ&utm_campaign=yelp_api_v3&utm_medium=api_v3_business_search&utm_source=65V52D5Pl9DW8TdUw062EQ", "review_count": 1172, "categories": [{"alias": "chinese", "title": "Chinese"}, {"alias": "hotdogs", "title": "Fast Food"}, {"alias": "noodles", "title": "Noodles"}], "rating": 4.5, "coordinates": {"latitude": 40.71735, "longitude": -73.99457}, "transactions": [], "price": "$", "location": {"address1": "79 Chrystie St", "address2": "", "address3": "", "city": "New York", "zip_code": "10002", "country": "US", "state": "NY", "display_address": ["79 Chrystie St", "New York, NY 10002"]}, "phone": "+12129255175", "display_phone": "(212) 925-5175", "distance": 1323.2851807067286}, {"id": "Lbs8QBRN1U7IYBo5Mcv-RQ", "alias": "88-lan-zhou-handmade-noodle-new-york", "name": "88 Lan Zhou Handmade Noodle", "image_url": "https://s3-media1.fl.yelpcdn.com/bphoto/18OSugPW766TSqMxuqc5Ww/o.jpg", "is_closed": false, "url": "https://www.yelp.com/biz/88-lan-zhou-handmade-noodle-new-york?adjust_creative=65V52D5Pl9DW8TdUw062EQ&utm_campaign=yelp_api_v3&utm_medium=api_v3_business_search&utm_source=65V52D5Pl9DW8TdUw062EQ", "review_count": 1640, "categories": [{"alias": "chinese", "title": "Chinese"}, {"alias": "noodles", "title": "Noodles"}], "rating": 4.0, "coordinates": {"latitude": 40.7155, "longitude": -73.99675}, "transactions": [], "price": "$", "location": {"address1": "40 Bowery St", "address2": null, "address3": "", "city": "New York", "zip_code": "10013", "country": "US", "state": "NY", "display_address": ["40 Bowery St", "New York, NY 10013"]}, "phone": "+16466830939", "display_phone": "(646) 683-0939", "distance": 1149.289558403674}, {"id": "ysqgdbSrezXgVwER2kQWKA", "alias": "julianas-pizza-brooklyn-5", "name": "Juliana's Pizza", "image_url": "https://s3-media1.fl.yelpcdn.com/bphoto/7JtwTxhWHf3YS70Ss_CfxA/o.jpg", "is_closed": false, "url": "https://www.yelp.com/biz/julianas-pizza-brooklyn-5?adjust_creative=65V52D5Pl9DW8TdUw062EQ&utm_campaign=yelp_api_v3&utm_medium=api_v3_business_search&utm_source=65V52D5Pl9DW8TdUw062EQ", "review_count": 1942, "categories": [{"alias": "pizza", "title": "Pizza"}], "rating": 4.5, "coordinates": {"latitude": 40.7026153030093, "longitude": -73.9934159993549}, "transactions": [], "price": "$$", "location": {"address1": "19 Old Fulton St", "address2": "", "address3": "", "city": "Brooklyn", "zip_code": "11201", "country": "US", "state": "NY", "display_address": ["19 Old Fulton St", "Brooklyn, NY 11201"]}, "phone": "+17185966700", "display_phone": "(718) 596-6700", "distance": 323.20506308227306}, {"id": "7Qvh0oFRsoqrO9qNlcMKXQ", "alias": "saigon-shack-new-york", "name": "Saigon Shack", "image_url": "https://s3-media4.fl.yelpcdn.com/bphoto/KLTtco2fXXV847KlczGqWQ/o.jpg", "is_closed": false, "url": "https://www.yelp.com/biz/saigon-shack-new-york?adjust_creative=65V52D5Pl9DW8TdUw062EQ&utm_campaign=yelp_api_v3&utm_medium=api_v3_business_search&utm_source=65V52D5Pl9DW8TdUw062EQ", "review_count": 2232, "categories": [{"alias": "sandwiches", "title": "Sandwiches"}, {"alias": "coffee", "title": "Coffee & Tea"}, {"alias": "salad", "title": "Salad"}], "rating": 4.0, "coordinates": {"latitude": 40.72969, "longitude": -74.000629}, "transactions": [], "price": "$", "location": {"address1": "114 Macdougal St", "address2": "", "address3": "", "city": "New York", "zip_code": "10012", "country": "US", "state": "NY", "display_address": ["114 Macdougal St", "New York, NY 10012"]}, "phone": "+12122280588", "display_phone": "(212) 228-0588", "distance": 2748.304724711492}, {"id": "IhSVn0TaX8xXb3wcQ-fgcA", "alias": "vanessas-dumpling-house-new-york-2", "name": "Vanessa's Dumpling House", "image_url": "https://s3-media4.fl.yelpcdn.com/bphoto/5wqmFK3xdGp62Q0YjBHk_Q/o.jpg", "is_closed": false, "url": "https://www.yelp.com/biz/vanessas-dumpling-house-new-york-2?adjust_creative=65V52D5Pl9DW8TdUw062EQ&utm_campaign=yelp_api_v3&utm_medium=api_v3_business_search&utm_source=65V52D5Pl9DW8TdUw062EQ", "review_count": 2442, "categories": [{"alias": "chinese", "title": "Chinese"}], "rating": 4.0, "coordinates": {"latitude": 40.71839, "longitude": -73.9917399}, "transactions": ["pickup", "delivery"], "price": "$", "location": {"address1": "118A Eldridge St", "address2": "", "address3": "", "city": "New York", "zip_code": "10002", "country": "US", "state": "NY", "display_address": ["118A Eldridge St", "New York, NY 10002"]}, "phone": "+12126258008", "display_phone": "(212) 625-8008", "distance": 1449.9327962540722}, {"id": "ogCC-lJJYnwXDvKGmKZ6Sw", "alias": "woorijip-authentic-korean-food-new-york", "name": "Woorijip Authentic Korean Food", "image_url": "https://s3-media4.fl.yelpcdn.com/bphoto/NZcGFutBjf1frDkslh6urw/o.jpg", "is_closed": false, "url": "https://www.yelp.com/biz/woorijip-authentic-korean-food-new-york?adjust_creative=65V52D5Pl9DW8TdUw062EQ&utm_campaign=yelp_api_v3&utm_medium=api_v3_business_search&utm_source=65V52D5Pl9DW8TdUw062EQ", "review_count": 2516, "categories": [{"alias": "korean", "title": "Korean"}], "rating": 4.0, "coordinates": {"latitude": 40.74747, "longitude": -73.98648}, "transactions": [], "price": "$", "location": {"address1": "12 W 32nd St", "address2": "", "address3": "", "city": "New York", "zip_code": "10001", "country": "US", "state": "NY", "display_address": ["12 W 32nd St", "New York, NY 10001"]}, "phone": "+12122441115", "display_phone": "(212) 244-1115", "distance": 4710.703598173038}, {"id": "nU4XBdvxDABXqZ6CnB8Dig", "alias": "clinton-street-baking-company-new-york-5", "name": "Clinton Street Baking Company", "image_url": "https://s3-media1.fl.yelpcdn.com/bphoto/DWHdizJ9bKbXN4yq6nbwAA/o.jpg", "is_closed": false, "url": "https://www.yelp.com/biz/clinton-street-baking-company-new-york-5?adjust_creative=65V52D5Pl9DW8TdUw062EQ&utm_campaign=yelp_api_v3&utm_medium=api_v3_business_search&utm_source=65V52D5Pl9DW8TdUw062EQ", "review_count": 4611, "categories": [{"alias": "bakeries", "title": "Bakeries"}, {"alias": "breakfast_brunch", "title": "Breakfast & Brunch"}, {"alias": "tradamerican", "title": "American (Traditional)"}], "rating": 4.0, "coordinates": {"latitude": 40.721128, "longitude": -73.983933}, "transactions": ["delivery", "restaurant_reservation", "pickup"], "price": "$$", "location": {"address1": "4 Clinton St", "address2": "", "address3": "", "city": "New York", "zip_code": "10002", "country": "US", "state": "NY", "display_address": ["4 Clinton St", "New York, NY 10002"]}, "phone": "+16466026263", "display_phone": "(646) 602-6263", "distance": 1950.282829638887}, {"id": "UA2M9QFZghe-9th2KwLoWQ", "alias": "burger-and-lobster-new-york-4", "name": "Burger & Lobster", "image_url": "https://s3-media3.fl.yelpcdn.com/bphoto/1rHd7F4zztAsScwzM0vDmw/o.jpg", "is_closed": false, "url": "https://www.yelp.com/biz/burger-and-lobster-new-york-4?adjust_creative=65V52D5Pl9DW8TdUw062EQ&utm_campaign=yelp_api_v3&utm_medium=api_v3_business_search&utm_source=65V52D5Pl9DW8TdUw062EQ", "review_count": 5003, "categories": [{"alias": "seafood", "title": "Seafood"}, {"alias": "burgers", "title": "Burgers"}, {"alias": "newamerican", "title": "American (New)"}], "rating": 4.0, "coordinates": {"latitude": 40.74007, "longitude": -73.99344}, "transactions": ["delivery", "restaurant_reservation", "pickup"], "price": "$$", "location": {"address1": "39 W 19th St", "address2": "", "address3": "", "city": "New York", "zip_code": "10011", "country": "US", "state": "NY", "display_address": ["39 W 19th St", "New York, NY 10011"]}, "phone": "+16468337532", "display_phone": "(646) 833-7532", "distance": 3852.2188529432046}], "total": 30000, "region": {"center": {"longitude": -73.99429321289062, "latitude": 40.70544486444615}}}